{
 "data":[
        {
            "id": "a1b2c3d4-e5f6-4a7b-8c9d-0e1f2a3b4c5d",
            "name": "St. Mary's Church",
            "phone": "+1-212-555-1234",
            "email": "info@stmarysnyc.org",
            "website": "https://stmarysnyc.org",
            "contactDetails": "Pastor John Doe",
            "country": "USA",
            "state": "NY",
            "city": "New York",
            "address": "123 Main St",
            "zipCode": "10001",
            "latitude": 40.7128,
            "longitude": -74.0060,
            "geom": {
                "type": "Point",
                "coordinates": [-74.0060, 40.7128]
            },
            "tracker": "b53ab59b-18ec-452a-b8f5-bc03a9b223d0",
            "status": 1,
            "updatedAt": "2023-10-01T12:34:56Z"
        },
        {
            "id": "b2c3d4e5-f6a7-4b8c-9d0e-1f2a3b4c5d6e",
            "name": "Grace Community Church",
            "phone": "+1-310-555-5678",
            "email": "info@gracecommunityla.org",
            "website": "https://gracecommunityla.org",
            "contactDetails": "Pastor Jane Smith",
            "country": "USA",
            "state": "CA",
            "city": "Los Angeles",
            "address": "456 Elm St",
            "zipCode": "90001",
            "latitude": 34.0522,
            "longitude": -118.2437,
            "geom": {
                "type": "Point",
                "coordinates": [-118.2437, 34.0522]
            },
            "tracker": null,
            "status": 0,
            "updatedAt": "2023-09-25T09:12:34Z"
        },
        {
            "id": "c3d4e5f6-a7b8-4c9d-0e1f-2a3b4c5d6e7f",
            "name": "Holy Trinity Church",
            "phone": "+1-312-555-9876",
            "email": "info@holytrinitychicago.org",
            "website": "https://holytrinitychicago.org",
            "contactDetails": "Pastor Michael Brown",
            "country": "USA",
            "state": "IL",
            "city": "Chicago",
            "address": "789 Oak St",
            "zipCode": "60601",
            "latitude": 41.8781,
            "longitude": -87.6298,
            "geom": {
                "type": "Point",
                "coordinates": [-87.6298, 41.8781]
            },
            "tracker": "9a95120d-4d57-4d4c-8160-0fef5aa2f14d",
            "status": 1,
            "updatedAt": "2023-10-05T14:22:10Z"
        },
        {
            "id": "d4e5f6a7-b8c9-4d0e-1f2a-3b4c5d6e7f8g",
            "name": "Faith Baptist Church",
            "phone": "+1-713-555-4321",
            "email": "info@faithbaptisthouston.org",
            "website": "https://faithbaptisthouston.org",
            "contactDetails": "Pastor Sarah Johnson",
            "country": "USA",
            "state": "TX",
            "city": "Houston",
            "address": "321 Pine St",
            "zipCode": "77001",
            "latitude": 29.7604,
            "longitude": -95.3698,
            "geom": {
                "type": "Point",
                "coordinates": [-95.3698, 29.7604]
            },
            "tracker": null,
            "status": 0,
            "updatedAt": "2023-09-30T18:45:22Z"
        }
		]
}
